星5段階評価,店名,住所,Dinner,Lunch,項目,緯度,経度,現在地からの距離(km),現在地点からの徒歩(分),声の大きさ
3.03,日高屋 北柏南口店,千葉県柏市北柏1-1-1,999,999,ラーメン,35.875084,139.987381,0.231,3.4650000000000003,1.0
3.57,煮干中華そば のじじR 我孫子店,千葉県我孫子市根戸1738-2,1499,1499,ラーメン,35.87743,139.993195,0.539,8.085,1.0
3.64,中華蕎麦 萌芽（ホウガ）,千葉県柏市北柏1-3-5 エクセル田中 1F,1499,1499,ラーメン,35.874371,139.986557,0.316,4.74,1.0
3.44,寺田家 北柏店,千葉県柏市北柏3-21-7,1499,1499,ラーメン,35.869827,139.989639,0.843,12.645,1.0
3.38,麺AKIBA,千葉県柏市根戸216-1,1499,1499,ラーメン,35.877258,139.986969,0.026,0.38999999999999996,1.0
3.03,英鮨,千葉県我孫子市台田4-1-30,0,0,寿司,35.876675,139.994232,0.635,9.525,3.0
